City_ID,City,Lat,Lng,Max Temp,Humidity,Cloudiness,Wind Speed,Country,Date
0,adamstown,-25.066,-130.1015,24.26,65,13,5.35,PN,1711485228
1,wajir,1.7471,40.0573,30.93,54,100,7.58,KE,1711485228
2,ushuaia,-54.8,-68.3,14.79,58,40,1.03,AR,1711485031
3,waitangi,-43.9535,-176.5597,14.9,91,100,4.02,NZ,1711485229
4,grytviken,-54.2811,-36.5092,4.13,80,56,2.27,GS,1711485229
5,paka,4.6374,103.4368,23.96,94,74,0.0,MY,1711485229
6,bethel,41.3712,-73.414,12.05,63,100,3.09,US,1711485117
7,el granada,37.5027,-122.4694,18.05,70,40,7.2,US,1711484968
8,puerto natales,-51.7236,-72.4875,14.25,47,40,13.38,CL,1711485229
9,baruun-urt,46.6806,113.2792,-4.68,68,95,2.1,MN,1711485229
10,sinop,41.7711,34.8709,2.53,73,1,3.49,TR,1711485068
11,colonia,50.9333,6.95,12.36,58,20,4.12,DE,1711485175
12,jevargi,17.0167,76.7667,29.24,29,8,6.9,IN,1711485229
13,port-aux-francais,-49.35,70.2167,5.79,91,100,15.19,TF,1711485229
14,lebu,-37.6167,-73.65,17.22,86,42,5.69,CL,1711485144
15,blackmans bay,-43.0167,147.3167,8.62,86,38,2.24,AU,1711485229
16,'ain el turk,35.7438,-0.7693,13.38,54,40,11.83,DZ,1711485229
17,egersund,58.4513,5.9997,6.16,85,100,9.86,NO,1711485061
18,margaret river,-33.95,115.0667,12.99,84,3,2.49,AU,1711484971
19,papatowai,-46.5619,169.4708,6.43,93,96,7.57,NZ,1711485230
20,kuala terengganu,5.3302,103.1408,25.97,94,20,1.03,MY,1711485182
21,wailua homesteads,22.0669,-159.378,25.24,82,100,8.23,US,1711485230
22,north perth,43.7251,-80.9672,9.4,86,100,7.62,CA,1711485230
23,iqaluit,63.7506,-68.5145,-12.15,61,20,4.12,CA,1711485230
24,la'ie,21.6477,-157.9253,27.98,74,15,3.58,US,1711485230
25,west island,-12.1568,96.8225,26.99,89,100,2.57,CC,1711485230
26,tolanaro,-25.0319,46.9987,24.04,73,40,6.17,MG,1711485230
27,bilibino,68.0546,166.4372,-20.44,79,4,0.86,RU,1711485230
28,tiksi,71.6872,128.8694,-28.68,98,99,3.45,RU,1711485230
29,callao,-12.0667,-77.15,24.16,73,100,4.63,PE,1711484961
30,aykhal,66.0,111.5,-23.17,99,100,3.19,RU,1711485230
31,puerto ayora,-0.7393,-90.3518,25.98,100,62,3.13,EC,1711485083
32,olonkinbyen,70.9221,-8.7187,-3.55,59,75,4.55,SJ,1711485230
33,ancud,-41.8697,-73.8203,15.07,74,69,2.27,CL,1711485230
34,nar'yan-mar,67.6713,53.087,-14.94,97,100,1.34,RU,1711485198
35,junin,-34.5838,-60.9433,24.29,67,9,3.06,AR,1711485114
36,newman,37.3138,-121.0208,18.47,59,8,1.79,US,1711485231
37,la ronge,55.1001,-105.2842,-5.88,27,0,5.66,CA,1711485231
38,yellowknife,62.456,-114.3525,-0.71,59,40,4.63,CA,1711485231
39,hawaiian paradise park,19.5933,-154.9731,26.04,78,100,0.89,US,1711485231
40,new norfolk,-42.7826,147.0587,9.28,95,21,1.22,AU,1711485231
41,kodiak,57.79,-152.4072,4.73,81,0,0.0,US,1711484947
42,langxiang,46.95,128.8833,-5.96,85,28,0.78,CN,1711485231
43,isafjordur,66.0755,-23.124,-4.1,75,92,6.47,IS,1711485231
44,masina,-4.3836,15.3914,29.16,65,20,0.0,CD,1711485231
45,inhambane,-23.865,35.3833,23.66,84,39,4.05,MZ,1711485231
46,ayr,55.4627,-4.6339,4.96,81,40,9.26,GB,1711485231
47,port mathurin,-19.6833,63.4167,24.9,68,100,8.4,MU,1711485232
48,mthatha,-31.5889,28.7844,21.31,83,83,1.03,ZA,1711485232
49,udachny,66.4167,112.4,-27.99,99,100,2.49,RU,1711485232
50,invercargill,-46.4,168.35,8.34,85,100,3.13,NZ,1711485232
51,rundu,-17.9333,19.7667,23.33,43,44,1.88,NA,1711485232
52,tralee,52.2704,-9.7026,5.84,92,95,2.04,IE,1711485232
53,hermanus,-34.4187,19.2345,17.11,86,100,6.17,ZA,1711485232
54,trinidad,-14.8333,-64.9,32.99,55,40,1.03,BO,1711485232
55,qaqortoq,60.7167,-46.0333,-2.86,79,97,2.41,GL,1711485232
56,edinburgh of the seven seas,-37.0676,-12.3116,17.41,76,100,6.25,SH,1711485232
57,hauterive,46.0901,3.4459,7.42,96,100,1.48,FR,1711485232
58,fort bragg,35.139,-79.006,21.01,42,40,5.14,US,1711485232
59,kapuskasing,49.4169,-82.4331,5.05,75,100,9.26,CA,1711485233
60,san antonio de pale,-1.4014,5.6325,28.97,77,96,1.59,GQ,1711485233
61,stanley,54.868,-1.6985,5.77,93,75,4.63,GB,1711485233
62,carolina,18.3808,-65.9574,28.94,75,40,5.14,PR,1711484976
63,realeza,-25.7689,-53.5325,27.2,56,4,2.51,BR,1711485233
64,labuan,5.2767,115.2417,26.2,94,20,0.0,MY,1711485233
65,balsas,-7.5325,-46.0356,26.78,81,90,1.83,BR,1711485233
66,haifa,32.8156,34.9892,17.34,82,68,2.67,IL,1711485233
67,conceicao do mato dentro,-19.0372,-43.425,20.74,92,78,1.96,BR,1711485233
68,groningen,53.25,6.75,9.53,75,74,2.57,NL,1711485234
69,pokhvistnevo,53.6524,52.1274,4.09,97,100,7.58,RU,1711485235
70,santana,-0.0583,-51.1817,30.1,74,20,2.57,BR,1711485073
71,guerrero negro,27.9769,-114.0611,18.22,50,16,9.45,MX,1711484986
72,kavaratti,10.5669,72.642,28.36,68,7,3.45,IN,1711485235
73,hernando,28.5419,-82.4582,31.08,58,75,3.6,US,1711485235
74,waiuku,-37.25,174.75,20.18,88,62,4.53,NZ,1711485143
75,soure,-0.7167,-48.5233,26.12,85,89,4.76,BR,1711485236
76,nemuro,43.3236,145.575,-2.9,84,34,4.58,JP,1711485237
77,oued zem,32.8627,-6.5736,6.17,68,2,4.59,MA,1711485237
78,queenstown,-31.8976,26.8753,16.91,89,65,1.17,ZA,1711485238
79,susuman,62.7833,148.1667,-22.79,100,100,0.45,RU,1711485201
80,impfondo,1.6381,18.0667,23.98,89,98,0.48,CG,1711485238
81,longyearbyen,78.2186,15.6401,-14.09,72,100,2.06,SJ,1711485238
82,san rafael,-34.6177,-68.3301,32.31,29,54,1.61,AR,1711485239
83,port saint john's,-31.6229,29.5448,23.61,85,78,2.02,ZA,1711485239
84,port elizabeth,-33.918,25.5701,19.5,98,40,2.68,ZA,1711485239
85,albany,42.6001,-73.9662,11.96,94,100,1.66,US,1711485101
86,reina mercedes,16.9855,121.8266,23.81,90,18,0.19,PH,1711485239
87,mareeba,-17.0,145.4333,22.47,92,100,1.07,AU,1711485240
88,duki,30.1541,68.5728,22.35,39,100,0.49,PK,1711485240
89,chongjin,41.7956,129.7758,1.9,54,40,2.15,KP,1711485240
90,crane,31.3974,-102.3501,18.87,16,37,8.54,US,1711485240
91,puerto baquerizo moreno,-0.9,-89.6,28.55,84,75,6.17,EC,1711485010
92,riverton,40.5219,-111.9391,9.02,58,75,6.17,US,1711484829
93,afif,23.9065,42.9172,18.41,31,0,7.05,SA,1711485241
94,tura,25.5198,90.2201,17.61,85,27,1.72,IN,1711485241
95,tazacorte,28.629,-17.9293,17.54,73,40,8.23,ES,1711485242
96,vadso,70.0744,29.7487,-13.51,66,0,1.54,NO,1711485242
97,la passe,45.5549,-0.8967,7.21,80,100,4.99,FR,1711485242
98,richfield,44.8833,-93.283,-3.34,87,100,9.26,US,1711485152
99,revda,56.801,59.9303,1.64,98,100,3.74,RU,1711485243
100,novodvinsk,64.4165,40.8122,-2.14,92,99,1.87,RU,1711485244
101,vilyuchinsk,52.9306,158.4028,-3.85,76,70,2.97,RU,1711485244
102,kidal,18.4411,1.4078,29.83,22,62,5.91,ML,1711485245
103,stolac,43.0844,17.9575,8.88,93,100,1.76,BA,1711485245
104,sisimiut,66.9395,-53.6735,-8.53,91,95,3.16,GL,1711485077
105,ribeira grande,38.5167,-28.7,16.22,82,75,10.8,PT,1711485247
106,parauapebas,-6.0675,-49.9022,25.83,96,94,0.49,BR,1711485146
107,bredasdorp,-34.5322,20.0403,18.41,81,100,5.13,ZA,1711485248
108,kerikeri,-35.2268,173.9474,16.06,94,24,2.69,NZ,1711485248
109,petropavlovsk-kamchatsky,53.0452,158.6483,-4.67,58,75,3.0,RU,1711485043
110,sumbawa besar,-8.5,117.4333,22.46,92,65,1.91,ID,1711485248
111,keflavik,64.0049,-22.5624,-0.76,100,100,6.17,IS,1711485249
112,rimouski,48.4488,-68.524,0.82,93,100,5.34,CA,1711485088
113,okhotsk,59.3833,143.3,-13.18,95,100,2.77,RU,1711485141
114,bodaybo,57.8506,114.1933,-8.18,97,100,0.58,RU,1711485249
115,mersa matruh,31.3525,27.2453,21.11,28,0,2.57,EG,1711485250
116,ilulissat,69.2167,-51.1,-4.99,93,75,3.6,GL,1711485250
117,fale old settlement,-9.3852,-171.2468,29.4,75,100,6.92,TK,1711485250
118,dunedin,-45.8742,170.5036,8.22,84,72,5.36,NZ,1711485250
119,mount gambier,-37.8333,140.7667,10.51,91,0,1.36,AU,1711485251
120,thompson,55.7435,-97.8558,-7.91,32,20,5.14,CA,1711485251
121,sulak,43.2734,47.5146,10.07,78,100,5.34,RU,1711485251
122,lompoc,34.6391,-120.4579,21.12,63,0,9.26,US,1711485251
123,undurkhaan,47.3194,110.6556,-5.46,84,100,3.33,MN,1711485251
124,rio grande,-32.035,-52.0986,25.06,63,25,3.9,BR,1711485178
125,jamestown,42.097,-79.2353,9.2,74,100,7.2,US,1711485252
126,opuwo,-18.0607,13.84,22.37,66,67,1.36,NA,1711485252
127,tanout,14.9709,8.8879,27.84,8,16,3.79,NE,1711485252
128,santana do livramento,-30.8908,-55.5328,21.86,67,3,2.97,BR,1711485252
129,weno,7.4515,151.8468,27.97,89,100,3.09,FM,1711485252
130,qui nhon,13.7667,109.2333,25.08,88,6,1.91,VN,1711485252
131,tuy hoa,13.0833,109.3,23.77,93,7,0.77,VN,1711485252
132,college,64.8569,-147.8028,6.56,59,75,1.54,US,1711485253
133,brokopondo,4.75,-55.1667,30.66,60,96,1.37,SR,1711485253
134,chibougamau,49.9168,-74.3659,7.79,27,75,8.75,CA,1711485253
135,talara,-4.5772,-81.2719,32.42,55,0,5.66,PE,1711485253
136,ust-nera,64.5667,143.2,-18.92,88,100,1.3,RU,1711485144
137,raduzhnyy,62.0961,77.475,-5.56,97,100,2.84,RU,1711485253
138,flying fish cove,-10.4217,105.6791,25.82,88,75,4.63,CX,1711485254
139,faya-largeau,17.9257,19.1043,27.11,10,75,5.61,TD,1711485254
140,tual,-5.6667,132.75,28.91,74,100,3.13,ID,1711485254
141,codrington,-38.2667,141.9667,12.73,85,0,1.58,AU,1711485254
142,iskateley,67.6803,53.1512,-14.99,97,100,1.34,RU,1711485255
143,tchibanga,-2.85,11.0333,24.25,95,100,0.51,GA,1711485255
144,mangai,-4.05,19.5333,21.11,98,100,1.16,CD,1711485255
145,san patricio,28.017,-97.5169,25.97,31,1,3.31,US,1711485255
146,cockburn town,21.4612,-71.1419,24.65,63,100,4.8,TC,1711485255
147,viedma,-40.8135,-62.9967,26.7,46,100,5.18,AR,1711484907
148,shaping,22.7545,112.9565,26.01,81,98,5.19,CN,1711485255
149,hobyo,5.3505,48.5268,28.47,75,99,6.65,SO,1711485255
150,hamilton,39.1834,-84.5333,17.36,75,75,10.8,US,1711484904
151,mayahi,13.9553,7.6712,29.06,7,65,3.45,NE,1711485256
152,atafu village,-8.5421,-172.5159,29.93,71,100,7.26,TK,1711485256
153,el bauga,18.262,33.9081,22.97,15,0,5.03,SD,1711485256
154,fort st. john,56.2499,-120.8529,7.94,34,40,1.54,CA,1711485091
155,touros,-5.1989,-35.4608,28.19,78,97,4.99,BR,1711485256
156,aasiaat,68.7098,-52.8699,-8.04,91,100,4.36,GL,1711485256
157,sironj,24.1,77.7,26.56,23,10,3.31,IN,1711485256
158,smithers,54.7804,-127.1743,8.18,49,75,0.0,CA,1711485257
159,lihue,21.9789,-159.3672,25.58,82,100,8.23,US,1711485257
160,chadan,51.2833,91.5833,-13.44,85,40,1.66,RU,1711485257
161,mitu,1.1983,-70.1733,29.34,65,100,1.84,CO,1711485257
162,littlefield,33.9173,-102.3249,14.84,22,34,5.72,US,1711485113
163,mongoumba,3.6415,18.5936,24.46,80,100,1.14,CF,1711485257
164,kenora,49.8167,-94.4337,-7.46,73,100,8.75,CA,1711485257
165,sinabang,2.4803,96.3801,27.51,76,100,1.42,ID,1711485257
166,katiola,8.1333,-5.1,29.35,49,91,1.1,CI,1711485257
167,georgetown,5.4112,100.3354,28.96,83,20,2.06,MY,1711484991
168,feodosiya,45.0333,35.3833,7.0,87,100,7.98,UA,1711485258
169,merizo village,13.2658,144.6691,25.85,95,25,4.89,GU,1711485258
170,westport,41.1415,-73.3579,11.9,68,100,1.54,US,1711485195
171,choyr,46.3611,108.3611,-3.04,66,92,9.09,MN,1711485258
172,gaalkacyo,6.7697,47.4308,26.04,79,97,7.99,SO,1711485258
173,gadzhiyevo,69.2551,33.3362,-9.79,95,100,3.29,RU,1711485198
174,saint-joseph,-21.3667,55.6167,24.21,72,100,5.67,RE,1711485258
175,vorgashor,67.5833,63.95,-26.82,100,74,0.43,RU,1711485258
176,portland,45.5234,-122.6762,13.78,72,75,3.09,US,1711484976
177,haiku-pauwela,20.9219,-156.3051,26.79,74,40,7.72,US,1711485259
178,peace river,56.2501,-117.286,6.17,45,75,3.09,CA,1711485203
179,geraldton,-28.7667,114.6,14.23,72,0,2.06,AU,1711485259
180,poso,-1.3959,120.7524,25.02,90,100,1.12,ID,1711485259
181,quellon,-43.1167,-73.6167,13.96,75,99,2.09,CL,1711485259
182,dudinka,69.4058,86.1778,-30.18,95,40,3.58,RU,1711485259
183,chinch'on,36.8567,127.4433,3.63,100,40,0.51,KR,1711485259
184,chivacoa,10.1603,-68.895,35.17,33,49,4.15,VE,1711485259
185,petropavlovka,50.6114,105.3196,-6.93,60,100,9.05,RU,1711485259
186,chonchi,-42.6128,-73.8092,15.56,72,96,0.36,CL,1711485260
187,tynda,55.1667,124.7167,-9.55,100,99,0.79,RU,1711485260
188,silver city,32.7701,-108.2803,4.98,86,75,9.77,US,1711485260
189,avila,40.5833,-5.0,2.03,97,100,9.66,ES,1711485260
190,bowen,-20.0167,148.2333,25.25,92,100,2.98,AU,1711485260
191,eket,4.6412,7.9209,28.11,83,91,3.52,NG,1711485260
192,coquimbo,-29.9533,-71.3436,19.85,77,40,5.66,CL,1711485135
193,ladhewala waraich,32.1566,74.117,22.06,27,100,2.64,PK,1711485260
194,tazovsky,67.4667,78.7,-20.5,92,100,2.9,RU,1711485260
195,muravlenko,63.7898,74.523,-14.91,99,88,3.66,RU,1711485260
196,renqiu,38.6989,116.0936,11.5,79,100,2.81,CN,1711485261
197,bereznik,62.8551,42.7072,-3.03,96,99,0.78,RU,1711485261
198,remire-montjoly,4.9167,-52.2667,31.02,66,75,5.66,GF,1711485261
199,thabazimbi,-24.5917,27.4116,21.18,65,80,3.49,ZA,1711485261
200,cravinhos,-21.3403,-47.7294,22.4,94,100,0.91,BR,1711485261
201,cidreira,-30.1811,-50.2056,22.19,67,31,4.63,BR,1711485261
202,castillos,-34.1667,-53.8333,18.61,71,6,3.41,UY,1711485261
203,truro,50.2653,-5.0544,9.42,93,100,5.14,GB,1711485200
204,arkhangel'sk,64.5401,40.5433,-1.94,80,75,2.0,RU,1711485262
205,flin flon,54.7682,-101.865,-7.09,38,0,3.6,CA,1711485262
206,punta arenas,-53.15,-70.9167,13.06,58,75,12.86,CL,1711485009
207,biltine,14.5333,20.9167,29.36,11,59,3.25,TD,1711485262
208,mehdia daira de meghila,35.4306,1.7571,5.47,80,100,10.42,DZ,1711485262
209,klaksvik,62.2266,-6.589,1.51,62,100,12.22,FO,1711485262
210,kingston,17.997,-76.7936,31.53,57,20,6.69,JM,1711485075
211,utrik,11.2278,169.8474,26.83,72,84,8.52,MH,1711485262
212,ghormach,35.7306,63.7826,15.68,69,24,1.73,AF,1711485262
213,taltal,-25.4,-70.4833,20.88,77,27,1.3,CL,1711485021
214,nahiyat ash shinafiyah,31.5874,44.6602,19.67,30,3,4.31,IQ,1711485262
215,avarua,-21.2078,-159.775,30.03,79,20,3.6,CK,1711485262
216,vila velha,-20.3297,-40.2925,26.08,85,100,5.81,BR,1711484746
217,rawson,-43.3002,-65.1023,24.73,46,14,2.86,AR,1711485044
218,taoudenni,22.6783,-3.9836,26.12,23,3,4.5,ML,1711485263
219,whitehorse,60.7161,-135.0538,5.43,56,75,5.66,CA,1711485019
220,fortuna,40.5982,-124.1573,16.07,69,40,3.09,US,1711485263
221,sao joao da barra,-21.6403,-41.0511,23.99,86,100,4.24,BR,1711485061
222,kapa'a,22.0752,-159.319,25.99,82,100,8.23,US,1711485263
223,saint-francois,46.4154,3.9054,6.69,88,75,5.14,FR,1711485263
224,island harbour,50.724,-1.2758,7.74,93,100,0.45,GB,1711485263
225,hasaki,35.7333,140.8333,7.38,68,80,10.62,JP,1711485263
226,belel,7.05,14.4333,21.08,17,31,1.39,CM,1711485263
227,sirvan,39.9379,48.9286,10.36,59,70,3.29,AZ,1711485263
228,ambon,-3.6954,128.1814,26.6,95,40,2.06,ID,1711485263
229,nagqu,31.5,92.0,-4.34,14,100,5.56,CN,1711485264
230,pikalevo,59.5183,34.1664,-1.27,93,97,2.65,RU,1711485264
231,barsukovskaya,44.7632,41.8191,6.08,66,97,1.29,RU,1711485264
232,ketchikan,55.3422,-131.6461,8.52,77,74,2.72,US,1711485264
233,pereslavl'-zalesskiy,56.7393,38.8563,-2.54,99,99,1.22,RU,1711485146
234,korsakov,46.6328,142.7813,-11.09,83,7,2.0,RU,1711485138
235,jijel,36.8205,5.7667,12.97,76,75,7.2,DZ,1711485264
236,iwon-up,40.3231,128.6553,3.17,73,1,1.77,KP,1711485264
237,margate,51.3813,1.3862,10.5,92,100,0.89,GB,1711485145
238,minas de marcona,-15.2119,-75.1103,21.85,66,19,4.8,PE,1711485264
239,port alfred,-33.5906,26.891,20.1,95,100,0.89,ZA,1711485264
240,navolato,24.7672,-107.6944,26.1,15,0,6.93,MX,1711485179
241,suez,29.9737,32.5263,21.49,26,100,0.54,EG,1711485265
242,santa elena de uairen,4.6167,-61.1333,30.92,35,66,3.6,VE,1711485265
243,anadyr,64.75,177.4833,-19.72,71,40,7.0,RU,1711485265
244,mhango,-3.2833,32.85,19.35,94,100,1.39,TZ,1711485265
245,ingeniero guillermo n. juarez,-23.9,-61.85,35.1,22,0,3.94,AR,1711485265
246,dzhambeyty,50.2536,52.595,3.26,99,100,5.45,KZ,1711485265
247,eastham,41.8301,-69.9739,5.6,93,100,6.17,US,1711485266
248,marti,22.9475,-80.9203,31.88,40,84,2.59,CU,1711485266
249,port macquarie,-31.4333,152.9167,16.05,92,12,2.16,AU,1711485151
250,victoria falls,-17.9235,25.843,22.78,56,79,2.28,ZW,1711485267
251,rampur,28.8167,79.0333,21.94,30,86,1.83,IN,1711485267
252,coyhaique,-45.5752,-72.0662,16.34,48,40,3.6,CL,1711485009
253,prainha,-1.8,-53.48,27.72,84,81,1.29,BR,1711485267
254,bangassou,4.7413,22.8184,22.88,93,100,0.56,CF,1711485267
255,al ghayzah,16.2079,52.176,27.89,55,94,3.86,YE,1711485267
256,pangody,65.85,74.4859,-19.48,100,86,2.92,RU,1711485133
257,dwarka,22.2394,68.9678,25.02,83,24,5.54,IN,1711485268
258,cannonvale,-20.2833,148.7,25.66,87,100,2.04,AU,1711485268
259,ortona,42.3496,14.4039,12.44,89,74,1.62,IT,1711485268
260,afaahiti,-17.75,-149.2833,29.93,73,71,6.28,PF,1711485268
261,rampura,30.25,75.2333,22.69,29,96,1.48,IN,1711485268
262,nova odesa,47.3078,31.7851,5.21,94,100,3.15,UA,1711485268
263,kyzyl,51.7,94.45,-13.32,78,50,3.13,RU,1711485085
264,newborough,52.6389,-0.2233,10.57,88,75,2.06,GB,1711485270
265,arraial do cabo,-22.9661,-42.0278,23.98,88,100,3.6,BR,1711485270
266,fuerte olimpo,-21.0415,-57.8738,32.36,44,77,3.05,PY,1711485270
267,porbandar,21.6422,69.6093,25.26,76,39,4.95,IN,1711485271
268,xinqing,48.2333,129.5,-7.58,93,7,0.52,CN,1711485271
269,asekeyevo,53.5742,52.7972,3.94,97,100,7.35,RU,1711485271
270,katsuren-haebaru,26.3369,127.8719,18.01,75,100,2.57,JP,1711485271
271,nova sintra,14.8667,-24.7167,19.65,73,100,8.44,CV,1711485271
272,letlhakeng,-24.0944,25.0298,21.89,52,53,5.47,BW,1711485271
273,badger,64.8,-147.5333,6.51,64,75,1.54,US,1711485271
274,boguchany,58.3814,97.4531,-17.3,96,66,2.24,RU,1711485271
275,sant lluis,39.8526,4.2594,12.22,87,40,6.17,ES,1711485271
276,happy valley-goose bay,53.3168,-60.3315,-0.83,31,75,3.09,CA,1711485125
277,alexander city,32.944,-85.9539,16.77,100,75,2.57,US,1711485272
278,constitucion,-35.3333,-72.4167,20.99,70,48,8.31,CL,1711484998
279,safotu,-13.4513,-172.4018,29.37,75,90,3.79,WS,1711485272
280,hefei,31.8639,117.2808,11.01,87,80,2.0,CN,1711485272
281,auki,-8.7676,160.7034,27.06,83,70,1.62,SB,1711485272
282,cidade velha,14.9167,-23.6167,22.26,73,75,9.77,CV,1711485272
283,belabo,4.9333,13.3,26.41,48,70,1.25,CM,1711485272
284,timbiqui,2.7717,-77.6654,28.13,80,59,2.48,CO,1711485272
285,wenchang,30.904,118.4887,9.95,88,100,1.61,CN,1711485272
286,luanda,-8.8368,13.2343,26.0,89,75,2.06,AO,1711484960
287,carnarvon,-24.8667,113.6333,24.81,61,0,6.44,AU,1711485273
288,yaren,-0.5472,166.916,27.9,80,85,5.1,NR,1711485273
289,mount isa,-20.7333,139.5,22.87,78,41,2.57,AU,1711485273
290,wanning,18.8003,110.3967,22.72,93,11,0.46,CN,1711485273
291,bouna,9.2667,-3.0,32.39,45,100,0.17,CI,1711485273
292,val-des-monts,45.6501,-75.666,10.97,40,100,8.23,CA,1711485019
293,deder,9.3167,41.45,16.37,73,86,1.32,ET,1711485273
294,george town,5.4112,100.3354,28.96,83,20,2.06,MY,1711484991
295,olds,51.7834,-114.102,2.47,86,100,5.66,CA,1711485273
296,lyubinskiy,55.1542,72.6925,-1.18,95,100,3.35,RU,1711485273
297,kone,-21.0595,164.8658,26.37,74,67,1.35,NC,1711485273
298,hultsfred,57.4882,15.8436,2.22,94,100,2.56,SE,1711485274
299,harstad,68.799,16.5293,-2.34,93,100,4.47,NO,1711485274
300,macau,22.2006,113.5461,22.85,88,40,5.66,MO,1711485006
301,yuzhno-kurilsk,44.0306,145.8556,-3.12,89,93,6.97,RU,1711485274
302,kokpekty,48.75,82.4,-8.0,94,33,0.88,KZ,1711485274
303,shiprock,36.7855,-108.687,9.42,24,99,7.08,US,1711485274
304,ulan bator,47.9077,106.8832,-1.93,80,40,5.0,MN,1711485241
305,timaru,-44.4,171.25,12.82,87,92,2.24,NZ,1711485274
306,daru,-9.0763,143.2092,27.27,82,100,1.26,PG,1711485274
307,dingtao,35.0683,115.5625,10.09,85,100,4.36,CN,1711485274
308,axim,4.8699,-2.2405,27.7,86,83,2.9,GH,1711485275
309,san isidro,-12.1167,-77.05,23.77,73,100,4.63,PE,1711485275
310,berdigestyakh,62.0989,126.6992,-11.89,95,100,3.06,RU,1711485199
311,talnakh,69.4865,88.3972,-30.31,97,45,3.56,RU,1711485275
312,moree,-29.4667,149.85,20.4,73,11,2.89,AU,1711485275
313,konarka,19.9,86.1167,25.22,83,4,5.44,IN,1711485275
314,tamanrasset,22.785,5.5228,21.95,33,97,2.06,DZ,1711485275
315,navirai,-23.065,-54.1906,32.36,32,8,1.62,BR,1711485219
316,choele choel,-39.2667,-65.6833,31.25,34,96,2.66,AR,1711485157
317,saipan,15.1355,145.701,25.39,1,40,1.54,MP,1711485275
318,saldanha,-33.0117,17.9442,17.03,85,68,11.96,ZA,1711485276
319,princeville,45.7668,-61.2985,3.16,82,100,5.66,CA,1711485276
320,vyazemskiy,47.5378,134.7525,-7.71,90,50,1.47,RU,1711485276
321,birao,10.2849,22.7882,26.65,14,6,2.47,CF,1711485276
322,envira,-7.3,-70.2167,29.43,78,87,0.45,BR,1711485276
323,broome,42.2506,-75.833,15.21,66,0,6.17,US,1711485277
324,sokcho,38.2083,128.5911,4.34,81,95,0.51,KR,1711485277
325,gobabis,-22.45,18.9667,19.07,76,95,4.88,NA,1711485277
326,laguna,38.421,-121.4238,17.86,66,100,1.34,US,1711484987
327,isiro,2.7739,27.616,20.2,99,76,0.55,CD,1711485277
328,ape,57.5393,26.6929,1.51,83,100,1.97,LV,1711485277
329,nadi,-17.8,177.4167,26.0,89,75,0.0,FJ,1711485277
330,mersing,2.4312,103.8405,27.95,83,20,4.63,MY,1711485278
331,rongelap,11.1635,166.8941,27.0,74,60,8.99,MH,1711485278
332,bamboo flat,11.7,92.7167,26.05,89,1,1.03,IN,1711485278
333,birendranagar,28.6019,81.6339,18.72,36,100,2.32,NP,1711485278
334,sanghar,26.0466,68.9481,28.7,32,46,5.12,PK,1711485278
335,xai-xai,-25.0519,33.6442,21.98,85,2,2.23,MZ,1711485278
336,chipinge,-20.1883,32.6236,17.23,98,70,1.33,ZW,1711485278
337,sidi ifni,29.3797,-10.173,15.86,59,15,9.0,MA,1711485278
338,barra do garcas,-15.89,-52.2567,25.32,94,75,1.07,BR,1711485278
339,fisterra,42.9049,-9.2629,9.3,73,68,7.12,ES,1711485278
340,lomo de arico,28.1667,-16.4833,16.8,61,20,6.69,ES,1711485278
341,labrador city,52.9463,-66.9114,0.95,40,20,3.6,CA,1711485016
342,ternate,0.8,127.4,26.68,82,74,2.18,ID,1711485278
343,port lincoln,-34.7333,135.8667,15.42,75,8,5.22,AU,1711485279
344,palmer,42.1584,-72.3287,8.78,67,100,4.63,US,1711485279
345,port shepstone,-30.7414,30.455,23.68,85,68,8.53,ZA,1711485279
346,glace bay,46.1969,-59.957,2.16,78,100,5.66,CA,1711485279
347,manga,11.6636,-1.0731,35.12,33,100,1.82,BF,1711485279
348,jiangyou,31.7667,104.7167,12.84,81,100,0.96,CN,1711485279
349,mugumu,-1.85,34.7,17.36,95,100,1.15,TZ,1711485279
350,rabaul,-4.1967,152.1721,27.41,78,100,1.72,PG,1711485279
351,puerto madryn,-42.7692,-65.0385,22.8,53,21,2.92,AR,1711485112
352,francisco beltrao,-26.0811,-53.055,24.59,73,0,1.6,BR,1711485130
353,shiggaon,15.0,75.2333,26.7,59,91,2.55,IN,1711485279
354,bodo,67.28,14.405,-2.98,63,0,3.6,NO,1711485279
355,mount pearl,47.5166,-52.7813,2.47,59,100,2.06,CA,1711485280
356,hithadhoo,-0.6,73.0833,28.11,75,100,1.27,MV,1711485280
357,daqing,46.5833,125.0,1.52,58,21,4.67,CN,1711485280
358,khudaganj,28.15,79.7167,22.34,27,75,2.48,IN,1711485280
359,dinguiraye,11.3,-10.7167,31.94,22,53,1.52,GN,1711485280
360,lycksele,64.5954,18.6735,-4.07,68,40,3.6,SE,1711485280
361,murzuq,25.9155,13.9184,26.35,11,79,4.0,LY,1711485083
362,patterson,37.4716,-121.1297,17.84,58,10,1.75,US,1711485014
363,el sauzal de rodriguez,31.9,-116.6833,15.79,66,47,4.7,MX,1711485280
364,kachug,53.9606,105.8817,-6.64,77,100,7.15,RU,1711485280
365,kuhmo,64.1333,29.5167,-12.91,100,93,0.61,FI,1711485280
366,murun-kuren,49.6342,100.1625,-7.73,42,68,8.32,MN,1711485280
367,launceston,-41.45,147.1667,8.42,93,38,4.63,AU,1711485281
368,mbanza-ngungu,-5.25,14.8667,22.16,93,100,1.36,CD,1711485281
369,luga,58.7372,29.8453,2.38,88,100,1.77,RU,1711485281
370,luderitz,-26.6481,15.1594,17.54,72,2,8.25,NA,1711485281
371,dingwall,57.5953,-4.4272,4.48,90,74,2.23,GB,1711485281
372,cedeira,43.6797,-8.0209,8.54,83,100,1.6,ES,1711485281
373,el alto,-4.2714,-81.2147,30.81,74,82,5.12,PE,1711485281
374,kununurra,-15.7667,128.7333,25.99,94,45,0.0,AU,1711485281
375,zaozersk,69.4005,32.4476,-11.99,95,100,1.72,RU,1711485281
376,woolgoolga,-30.1106,153.2007,18.91,90,78,3.69,AU,1711485281
377,ploudalmezeau,48.5333,-4.65,8.14,76,40,3.09,FR,1711485281
378,necochea,-38.5473,-58.7368,23.48,43,83,4.46,AR,1711485103
379,kurlovo,55.4325,40.4854,0.95,95,100,3.01,RU,1711485198
380,lezhnevo,56.7751,40.8917,1.23,86,77,2.14,RU,1711485281
381,tapes,-30.6733,-51.3958,22.18,64,0,5.14,BR,1711485281
382,saint-malo,48.5,-1.8333,7.34,81,84,1.65,FR,1711485281
383,recreo,-29.2818,-65.061,33.26,34,1,8.81,AR,1711485281
384,takoradi,4.8845,-1.7554,27.95,84,100,3.51,GH,1711485201
385,katabu,-4.9333,122.5167,24.41,95,55,1.31,ID,1711485282
386,shiqian,27.5225,108.2281,15.05,88,100,1.4,CN,1711485282
387,st. john's,47.5649,-52.7093,2.93,60,100,2.06,CA,1711485148
388,byala slatina,43.4667,23.9333,9.78,54,100,2.23,BG,1711485282
389,coahuayana de hidalgo,18.7,-103.6583,29.18,42,0,3.32,MX,1711485282
390,klyuchi,52.2667,79.1667,-1.68,95,99,2.95,RU,1711485282
391,cabedelo,-6.9811,-34.8339,30.37,80,55,5.62,BR,1711485076
392,ulsteinvik,62.3432,5.8487,5.42,49,100,3.13,NO,1711485282
393,nueva concepcion,14.2,-91.3,34.22,39,100,7.27,GT,1711485282
394,porto novo,6.4965,2.6036,28.4,82,69,3.33,BJ,1711485283
395,prado,-17.3411,-39.2208,26.16,81,80,4.27,BR,1711485283
396,aleksandrovsk-sakhalinskiy,50.8975,142.1561,-14.69,91,9,2.29,RU,1711485283
397,lappeenranta,61.0587,28.1887,-0.67,97,100,2.57,FI,1711485283
398,santa ana,33.7456,-117.8678,21.54,57,40,5.14,US,1711485075
399,illizi,26.4833,8.4667,29.89,18,7,3.87,DZ,1711485283
400,siracusa,37.0881,15.2792,17.66,56,0,2.39,IT,1711485283
401,"laikit, laikit ii (dimembe)",1.4792,124.9735,22.47,100,20,1.03,ID,1711485283
402,mejit,10.2753,170.8646,26.98,72,100,8.48,MH,1711485283
403,sao gabriel da cachoeira,-0.1303,-67.0892,34.18,49,46,0.51,BR,1711485283
404,kharp,66.8014,65.8081,-19.71,93,8,3.44,RU,1711485199
405,sendafa,9.15,39.0333,15.64,84,93,1.95,ET,1711485283
406,nieuw amsterdam,5.8833,-55.0833,33.09,58,20,3.09,SR,1711485283
407,chernyshevskiy,63.0128,112.4714,-18.72,97,100,2.57,RU,1711485283
408,tutoia,-2.7619,-42.2744,25.54,87,100,3.58,BR,1711485284
409,alofi,-19.0595,-169.9187,25.94,94,40,2.57,NU,1711485284
410,susanville,40.4163,-120.653,11.91,42,20,2.24,US,1711485017
411,ciudad madero,22.2667,-97.8333,28.11,44,0,8.52,MX,1711485284
412,taulaga,-11.0553,-171.0883,29.09,76,99,6.2,AS,1711485284
413,lagunas,-5.2269,-75.6753,33.18,52,89,0.79,PE,1711485284
414,cabo san lucas,22.8909,-109.9124,23.61,44,0,7.72,MX,1711484905
415,chalinze,-6.6378,38.354,23.01,98,80,1.44,TZ,1711485284
416,baise city,23.8997,106.6133,22.63,87,70,1.22,CN,1711485284
417,sanming,26.2486,117.6186,17.22,88,66,0.91,CN,1711485284
418,pitimbu,-7.4706,-34.8086,30.33,79,22,5.07,BR,1711485284
419,tawau,4.2498,117.8871,25.07,86,99,1.6,MY,1711485284
420,woodcrest,33.8822,-117.3573,18.86,52,0,4.12,US,1711485284
421,holualoa,19.6228,-155.9522,25.48,73,75,6.69,US,1711485285
422,kotido,2.9806,34.1331,25.66,56,18,6.4,UG,1711485285
423,lakatoro,-16.0999,167.4164,27.88,82,100,1.74,VU,1711485285
424,lautoka,-17.6167,177.4667,25.92,89,75,0.0,FJ,1711485072
425,argungu,12.7433,4.5269,33.42,10,100,2.64,NG,1711485285
426,bom jesus,-9.0744,-44.3586,29.0,53,92,1.3,BR,1711485285
427,antofagasta,-23.65,-70.4,22.6,74,2,2.35,CL,1711485010
428,alice springs,-23.7,133.8833,19.75,94,100,2.57,AU,1711485285
429,abdanan,32.9926,47.4198,10.55,56,26,1.23,IR,1711485285
430,laibin,23.7,109.2667,21.51,80,100,0.36,CN,1711485285
431,tsiombe,-25.3,45.4833,21.81,77,39,5.32,MG,1711485285
432,middelburg,-25.7751,29.4648,16.61,63,19,2.47,ZA,1711485285
433,mitsamiouli,-11.3847,43.2844,28.14,81,100,3.21,KM,1711485286
434,klippan,56.1356,13.1309,5.35,90,96,2.57,SE,1711485286
435,borgarnes,64.5383,-21.9206,-0.97,60,93,4.41,IS,1711485286
436,bathsheba,13.2167,-59.5167,29.34,70,20,4.63,BB,1711485286
437,weining,26.85,104.2333,11.88,41,78,3.09,CN,1711485286
438,mermoz boabab,14.7065,-17.4758,23.31,78,0,6.17,SN,1711485201
439,maralal,1.0968,36.698,17.28,82,100,2.74,KE,1711485287
440,khandyga,62.6667,135.6,-10.13,96,100,1.84,RU,1711485288
441,kirillov,59.863,38.3813,-1.12,99,77,0.85,RU,1711485289
442,enewetak,11.3474,162.3373,27.1,77,69,8.48,MH,1711485292
443,garoowe,8.4054,48.4845,24.9,82,58,6.55,SO,1711485294
444,puerto lempira,15.2667,-83.7667,34.08,59,20,7.2,HN,1711485295
445,rupert,42.6191,-113.6772,7.97,42,20,9.77,US,1711485295
446,kangding,30.0513,101.9603,5.05,84,55,1.4,CN,1711485296
447,dorgali,40.2926,9.5881,13.51,85,99,1.86,IT,1711485297
448,inari,68.906,27.0288,-18.35,100,60,1.28,FI,1711485297
449,znamenskoye,57.1281,73.8282,-0.89,96,100,2.85,RU,1711485298
450,yelizovo,53.1873,158.3805,-3.92,58,75,1.0,RU,1711485298
451,moratalla,38.1893,-1.8918,5.82,70,22,6.86,ES,1711485298
452,la jolla,32.8473,-117.2742,19.52,69,75,4.63,US,1711485298
453,kill devil hills,36.0307,-75.676,8.32,88,100,5.66,US,1711485180
454,urengoy,65.9667,78.3667,-15.24,96,100,4.04,RU,1711485085
455,acapulco de juarez,16.8634,-99.8901,25.9,65,40,7.72,MX,1711485211
456,birjand,32.8663,59.2211,9.26,53,20,2.06,IR,1711485300
457,qamdo,31.1667,97.2333,-5.53,83,100,1.08,CN,1711485300
458,trujillo,-8.116,-79.03,23.98,78,0,6.17,PE,1711485143
459,ta`u,-14.2336,-169.5144,29.1,77,100,5.33,AS,1711485301
460,guarapari,-20.6667,-40.4975,26.05,89,100,2.21,BR,1711484738
461,lucapa,-8.4192,20.7447,20.5,92,100,0.85,AO,1711485301
462,olinda,-8.0089,-34.8553,29.85,74,20,4.12,BR,1711485277
463,poggio rusco,44.9749,11.1187,9.49,90,100,6.51,IT,1711485302
464,belmonte,-15.8631,-38.8828,26.85,81,30,3.42,BR,1711485302
465,novoagansk,61.9449,76.6625,-4.89,97,100,2.9,RU,1711485302
466,yokadouma,3.5167,15.05,23.93,70,99,1.04,CM,1711485303
467,hami,42.8,93.45,8.91,36,2,0.78,CN,1711485303
468,fairmont,39.4851,-80.1426,13.65,94,100,0.76,US,1711485168
469,kenai,60.5544,-151.2583,6.05,79,100,1.54,US,1711485272
470,bukittinggi,-0.3091,100.3706,18.87,97,100,0.52,ID,1711485304
471,dhidhdhoo,6.8833,73.1,28.22,73,100,1.95,MV,1711485304
472,sretensk,52.2453,117.7093,-3.47,91,100,1.42,RU,1711485304
473,rabo de peixe,37.8,-25.5833,15.73,82,75,9.26,PT,1711485304
474,northam,51.0333,-4.2167,7.44,87,100,5.22,GB,1711485305
475,coro,11.4045,-69.6734,28.78,66,4,4.78,VE,1711485305
476,la sarre,48.8002,-79.1996,3.63,83,100,5.58,CA,1711485305
477,meulaboh,4.1363,96.1285,25.51,88,98,1.5,ID,1711485305
478,weilburg,50.4833,8.25,10.62,85,56,1.25,DE,1711485306
479,yurty,56.0498,97.6348,-12.51,84,100,4.56,RU,1711485306
480,petoskey,45.3733,-84.9553,15.96,68,100,5.66,US,1711485142
481,nago,26.5881,127.9761,17.86,72,85,4.44,JP,1711485307
482,lugazi,0.3772,32.9197,19.95,94,100,1.03,UG,1711485307
483,namanga,-2.5433,36.7905,20.55,86,98,1.79,KE,1711485307
484,morehead city,34.7229,-76.726,17.22,73,0,1.79,US,1711485308
485,jackson,42.4165,-122.8345,13.73,53,20,3.09,US,1711485217
486,sirjan,29.452,55.6814,11.38,46,0,2.54,IR,1711485308
487,trittau,53.6167,10.4,10.04,70,100,3.42,DE,1711485309
488,sorong,-0.8833,131.25,26.0,87,100,2.68,ID,1711485309
489,belyy yar,53.6039,91.3903,-9.06,73,0,1.0,RU,1711485309
490,nacozari de garcia,30.3742,-109.6908,15.22,30,94,7.34,MX,1711485310
491,copala,16.65,-98.9833,29.1,46,11,5.62,MX,1711485310
492,al jawf,29.5,38.75,18.8,20,0,2.84,SA,1711485310
493,leava,-14.3,-178.1667,29.89,70,69,4.27,WF,1711485310
494,yauya,-8.9833,-77.3,14.07,68,96,0.46,PE,1711485310
495,sola,-13.8833,167.55,27.67,80,64,2.31,VU,1711485310
496,conde,-7.2597,-34.9075,29.7,74,0,5.66,BR,1711485311
497,dahlonega,34.5326,-83.9849,13.39,96,100,1.15,US,1711485311
498,rikaze,29.25,88.8833,-0.57,12,7,0.34,CN,1711485311
499,caleta olivia,-46.4393,-67.5281,22.86,31,61,7.14,AR,1711485062
500,eyl,7.9803,49.8164,27.82,83,91,6.34,SO,1711485311
501,yerofey pavlovich,53.9667,121.9667,-7.99,94,100,1.76,RU,1711485311
502,matoury,4.8483,-52.3317,30.98,66,75,5.66,GF,1711485029
503,fada n'gourma,12.0622,0.3578,36.61,27,97,3.26,BF,1711485312
504,nuuk,64.1835,-51.7216,-2.66,93,75,5.14,GL,1711485312
505,bijie,27.3125,105.2942,10.49,96,100,2.02,CN,1711485312
506,shache,38.4167,77.2406,15.95,23,90,2.08,CN,1711485312
507,north battleford,52.7834,-108.2847,-3.66,62,0,8.75,CA,1711485312
508,imperatriz,-5.5264,-47.4917,28.68,87,50,0.61,BR,1711484715
509,constantia,44.1833,28.65,5.39,73,83,4.62,RO,1711485078
510,gritsovskiy,54.1376,38.1604,0.52,97,100,2.83,RU,1711485312
511,ghadamis,30.1337,9.5007,24.31,17,0,4.72,LY,1711485312
512,serhiyivka,46.0272,30.3768,6.39,80,0,2.37,UA,1711485312
513,chichigalpa,12.5776,-87.027,33.84,46,40,2.06,NI,1711485312
514,troitsko-pechorsk,62.7084,56.1964,-12.39,97,79,1.34,RU,1711485312
515,east london,-33.0153,27.9116,21.98,91,99,6.52,ZA,1711485312
516,mao,39.8885,4.2658,12.31,87,40,6.17,ES,1711485312
517,moussoro,13.6408,16.4901,30.09,10,12,4.19,TD,1711485312
518,lorengau,-2.0226,147.2712,27.67,79,85,1.46,PG,1711485313
519,pontianak,-0.0333,109.3333,23.99,100,75,1.03,ID,1711485313
520,qingdao,36.0986,120.3719,7.78,66,0,6.0,CN,1711485072
521,thames,-37.1333,175.5333,18.53,89,40,3.81,NZ,1711485313
522,dapa,9.7594,126.0531,26.85,82,100,2.72,PH,1711485313
523,pandan,14.0453,124.1694,26.26,92,26,3.9,PH,1711485313
524,djougou,9.7085,1.666,31.26,39,100,2.18,BJ,1711485313
525,niquero,20.0431,-77.5828,28.99,62,61,3.18,CU,1711485313
526,al majaridah,19.1236,41.9111,24.93,43,0,1.18,SA,1711485313
527,pisco,-13.7,-76.2167,26.03,69,40,3.09,PE,1711485250
528,rio gallegos,-51.6226,-69.2181,21.03,32,40,5.66,AR,1711485104
529,namibe,-15.1961,12.1522,25.35,72,38,0.83,AO,1711485314
530,pasuquin,18.3328,120.6177,24.97,94,20,1.03,PH,1711485314
531,arambol,15.6868,73.7045,26.94,79,99,2.68,IN,1711485314
532,la huaca,-4.9117,-80.96,32.4,48,56,7.2,PE,1711485314
533,pfarrkirchen,48.432,12.9381,9.83,80,14,2.57,DE,1711485314
534,praia da vitoria,38.7333,-27.0667,17.14,77,75,8.04,PT,1711485314
535,barra de santo antonio,-9.4047,-35.5072,29.6,81,83,3.89,BR,1711485314
536,urzhar,47.093,81.6294,6.62,46,2,2.16,KZ,1711485314
537,valparaiso,-33.0393,-71.6273,30.08,68,0,5.66,CL,1711485103
538,buchanan,5.8808,-10.0467,27.11,85,85,2.41,LR,1711485314
539,aktau,43.65,51.2,7.32,87,99,6.81,KZ,1711485315
540,ilhabela,-23.7781,-45.3581,23.71,87,98,2.39,BR,1711485316
541,bengkulu,-3.8004,102.2655,24.61,91,100,1.66,ID,1711485049
542,christies beach,-35.1396,138.4698,15.73,79,0,2.68,AU,1711485316
543,dongola,19.1667,30.4833,22.8,13,0,4.36,SD,1711485316
544,san clemente,33.427,-117.612,20.06,75,22,1.34,US,1711485125
545,abbadia san salvatore,42.8821,11.6695,9.91,95,100,2.87,IT,1711485316
546,nandura buzurg,20.8333,76.45,30.63,19,5,0.85,IN,1711485316
547,vila do maio,15.1333,-23.2167,22.44,74,100,9.27,CV,1711485316
548,vengerovo,55.6848,76.7471,-4.52,97,100,2.91,RU,1711485316
549,faranah,10.0404,-10.7434,32.07,25,17,1.44,GN,1711485317
550,nicoya,10.1483,-85.452,32.5,52,85,1.74,CR,1711485235
551,nova vicosa,-17.8919,-39.3719,26.46,78,56,4.33,BR,1711485317
552,sanctuary point,-35.1114,150.629,20.42,84,99,1.64,AU,1711485317
553,selkirk,50.1436,-96.8845,-6.06,93,100,5.81,CA,1711485311
554,puerto armuelles,8.2833,-82.8667,32.99,62,71,2.24,PA,1711485317
555,barlinek,52.9946,15.2186,8.37,66,89,6.42,PL,1711485317
556,marquette,46.5333,-87.6335,10.74,94,99,3.13,US,1711485309
557,corumba,-19.0092,-57.6533,31.95,62,40,4.63,BR,1711485247
558,betio village,1.358,172.9211,27.02,79,62,4.16,KI,1711485318
559,pacific grove,36.6177,-121.9166,17.9,68,100,5.14,US,1711485039
560,sijunjung,-0.6876,100.9537,22.78,97,100,0.47,ID,1711485318
561,sao martinho,39.5144,-9.1311,13.82,83,73,8.94,PT,1711485114
562,popondetta,-8.7537,148.2534,25.17,94,100,0.78,PG,1711485318
563,kapshagay,43.8833,77.0833,13.15,45,1,6.79,KZ,1711485318
564,manistee,44.2445,-86.3242,14.03,82,100,7.2,US,1711485318
565,ulanhot,46.0833,122.0833,0.57,47,56,2.51,CN,1711485318
